name,latitude,longitude,emotion,confidence_score,context
Le Chambon-sur-Lignon,45.06081,4.302941,joy,0.9,"e, November 1941, Le Chambon-sur-Lignon, France. I'm in Le Chambon-sur-Lignon. It's way up on a high plateau in the mountains. It's beautiful here. What an amazing dif"
France,46.603354,1.888334,neutral,0.6,"November 1941, Le Chambon-sur-Lignon, France. I'm in Le Chambon-sur-Lignon. It's way up on a high plateau in the mountains. It's beautiful here. What an amazing dif"
Le Chambon-sur-Lignon,45.06081,4.302941,joy,0.92,"Le Chambon-sur-Lignon, France. I'm in Le Chambon-sur-Lignon. It's way up on a high plateau in the mountains. It's beautiful here. What an amazing difference from Gurs! I'm staying at La Guespy, which is a home for refugees.  My friend just arrived, and before she came she saw her mother for an hour that morning through the fence, and then they put them all on cattle wagons"
Gurs,43.267792,-0.803723,sadness,0.95,"h plateau in the mountains. It's beautiful here. What an amazing difference from Gurs! I'm staying at La Guespy, which is a home for refugees.  My friend just arrived, and before she came she saw her mother for an hour that morning through the fence, and then they put them all on cattle wagons and they were deported. And now they're gone.  We are not sure, but we think they took them to Drancy.  Martin and I are working in the new carpentry shop now."
La Guespy,45.062484,4.300796,neutral,0.71,"fference from Gurs! I'm staying at La Guespy, which is a home for refugees.  My friend just arrived, and before she came she saw her mother for an hour that morning through the fence, and then they put them all on cattle wagons and they were deported. And now they're gone.  We are not sure, but we think they took them to Drancy.  Martin and I are working in the new carpentry shop now. I don't really like carpentry, but at least I know how to do it, and at least I am safe."
Drancy,48.922431,2.444137,sadness,0.97,"hey saw her mother for an hour that morning through the fence, and then they put them all on cattle wagons and they were deported. And now they're gone.  We are not sure, but we think they took them to Drancy.  Martin and I are working in the new carpentry shop now. I don't really like carpentry, but at least I know how to do it, and at least I am safe."
